{
  "stores": [
    {
      "id": 1,
      "name": "명동점",
      "address1": "서울특별시 중구 명동8길 16-1",
      "address2": "(명동2가) 컨버스",
      "city": "중구",
      "phone": "02-318-0490",
      "longitude": "126.984530400000000",
      "latitude": "37.562928000000000",
      "state": "서울특별시",
      "store_type_id": 1
    },
    {
      "id": 2,
      "name": "코엑스점",
      "address1": "서울특별시 강남구 영동대로 513",
      "address2": "(삼성동 코엑스몰 G109호) 컨버스",
      "city": "강남구",
      "phone": "02-6002-3030",
      "longitude": "127.058853000000000",
      "latitude": "37.512487800000000",
      "state": "서울특별시",
      "store_type_id": 1
    },
    {
      "id": 3,
      "name": "광복점",
      "address1": "부산광역시 중구 광복로 81",
      "address2": "(광복동1가) 컨버스",
      "city": "중구",
      "phone": "051-242-1129",
      "longitude": "129.033807700000000",
      "latitude": "35.098656100000000",
      "state": "부산광역시",
      "store_type_id": 1
    },
    {
      "id": 4,
      "name": "두타점",
      "address1": "서울특별시 중구 장충단로 275",
      "address2": "두산타워 지하1층 012호 컨버스",
      "city": "중구",
      "phone": "02-3398-4041",
      "longitude": "127.000042900000000",
      "latitude": "37.568930700000000",
      "state": "서울특별시",
      "store_type_id": 2
    },
    {
      "id": 5,
      "name": "신세계하남점",
      "address1": "경기도 하남시 미사대로 750",
      "address2": "스타필드 하남 신세계백화점 3층 컨버스",
      "city": "하남시",
      "phone": "031-8072-1383",
      "longitude": "127.223519000000000",
      "latitude": "37.546195000000000",
      "state": "경기도",
      "store_type_id": 2
    },
    {
      "id": 6,
      "name": "롯데본점점",
      "address1": "서울특별시 중구 소공동 1",
      "address2": "롯데백화점 7층 컨버스",
      "city": "중구",
      "phone": "02-772-3432",
      "longitude": "126.980953300000000",
      "latitude": "37.564660200000000",
      "state": "서울특별시",
      "store_type_id": 2
    },
    {
      "id": 7,
      "name": "롯데잠실점",
      "address1": "서울특별시 송파구 잠실3동 40-1",
      "address2": "롯데백화점 7층 컨버스",
      "city": "송파구",
      "phone": "02-2143-7515",
      "longitude": "127.098042700000000",
      "latitude": "37.511279300000000",
      "state": "서울특별시",
      "store_type_id": 2
    },
    {
      "id": 8,
      "name": "롯데영등포점",
      "address1": "서울특별시 영등포구 영등포동 618-496",
      "address2": "롯데백화점 7층 컨버스",
      "city": "영등포구",
      "phone": "02-2164-6025",
      "longitude": "126.907492200000000",
      "latitude": "37.515491100000000",
      "state": "서울특별시",
      "store_type_id": 2
    },
    {
      "id": 9,
      "name": "롯데노원점",
      "address1": "서울특별시 노원구 상계2동 713",
      "address2": "롯데백화점 8층 컨버스",
      "city": "노원구",
      "phone": "02-950-2688",
      "longitude": "127.061123400000000",
      "latitude": "37.655163800000000",
      "state": "서울특별시",
      "store_type_id": 2
    },
    {
      "id": 10,
      "name": "롯데강남점",
      "address1": "서울특별시 강남구 대치동 937",
      "address2": "롯데백화점 강남점 7층 컨버스",
      "city": "강남구",
      "phone": "02-531-2746",
      "longitude": "127.053306000000000",
      "latitude": "37.496942700000000",
      "state": "서울특별시",
      "store_type_id": 2
    },
    {
      "id": 11,
      "name": "롯데미아점",
      "address1": "서울 강북구 미아동 70-6",
      "address2": "롯데백화점 미아점 5층",
      "city": "강북구",
      "phone": "02-944-2565",
      "longitude": "127.030488000000000",
      "latitude": "37.614628000000000",
      "state": "서울특별시",
      "store_type_id": 2
    },
    {
      "id": 12,
      "name": "롯데중동점",
      "address1": "경기도 부천시 원미구 중동 1140",
      "address2": "롯데백화점 중동점 7층 컨버스",
      "city": "부천시",
      "phone": "032-320-7782",
      "longitude": "126.773125900000000",
      "latitude": "37.502691500000000",
      "state": "경기도",
      "store_type_id": 2
    },
    {
      "id": 13,
      "name": "롯데분당점",
      "address1": "경기도 성남시 분당구 수내동 14",
      "address2": "롯데백화점 4층 컨버스",
      "city": "성남시",
      "phone": "031-738-2532",
      "longitude": "127.114265400000000",
      "latitude": "37.378445200000000",
      "state": "경기도",
      "store_type_id": 2
    },
    {
      "id": 14,
      "name": "롯데수원점",
      "address1": "경기도 수원시 권선구 세화로 134",
      "address2": "롯데백화점 5층 컨버스",
      "city": "수원시",
      "phone": "031-8066-0552",
      "longitude": "126.997365400000000",
      "latitude": "37.264263700000000",
      "state": "경기도",
      "store_type_id": 2
    },
    {
      "id": 15,
      "name": "롯데평촌점",
      "address1": "경기도 안양시 동안구 호계동 1039",
      "address2": "롯데백화점 5층 컨버스",
      "city": "안양시",
      "phone": "031-8086-9527",
      "longitude": "126.951602800000000",
      "latitude": "37.390835000000000",
      "state": "경기도",
      "store_type_id": 2
    },
    {
      "id": 16,
      "name": "롯데광복점",
      "address1": "부산광역시 중구 중앙대로 2",
      "address2": "롯데백화점 광복점 아쿠아몰 7층 컨버스",
      "city": "중구",
      "phone": "051-678-3794",
      "longitude": "129.034486500000000",
      "latitude": "35.098480100000000",
      "state": "부산광역시",
      "store_type_id": 2
    }
  ]
}
